{
    "Misc": [
        {
            "_id": "68c7f27e20f4dc4834768bd7",
            "cityId": "68c7454b4ea2df675385f352",
            "cityName": "Varanasi",
            "localMap": "https://res.cloudinary.com/dmpo42qxm/image/upload/v1757438609/qnlmx1vzlkvt1t83loyh.jpg",
            "emergencyContacts": "Ambulance No. 108",
            "hospital": "Surya Super Hospital",
            "hospitalLocationLink": "https://maps.app.goo.gl/NiFbaoXbhVb54CxM8",
            "hospitalLat": 25.3075,
            "hospitalLon": 82.99,
            "PoliceLocationLink": "https://maps.app.goo.gl/i5KBi5oq5NZFNL426",
            "PoliceLat": 25.32,
            "PoliceLon": 83,
            "parking": "Sankat  Mochan Parking",
            "parkingLocationLink": "https://maps.app.goo.gl/z4unCpmfTsAFPqfj7",
            "parkingLat": 25.2829,
            "parkingLon": 83.0003,
            "publicWashrooms": "SBM Toilet",
            "publicWashroomsLocationLink": "https://maps.app.goo.gl/RFi3mY3gjFR8fizM7",
            "publicWashroomsLat": 25.3165,
            "publicWashroomsLon": 83.011
        },
        {
            "_id": "68c7f27e20f4dc4834768bd6",
            "cityId": "68c7454b4ea2df675385f352",
            "cityName": "Varanasi",
            "localMap": "https://res.cloudinary.com/dmpo42qxm/image/upload/v1757438604/qsp60qiplndpmpprdsta.jpg",
            "emergencyContacts": "Police No. 112",
            "hospital": "Care Hospital",
            "hospitalLocationLink": "https://maps.app.goo.gl/r3bqEC6V6HHiKMiFA",
            "hospitalLat": 25.2886,
            "hospitalLon": 82.9941,
            "PoliceLocationLink": "https://maps.app.goo.gl/QGyVZkZJMSoXJ3Xj6",
            "PoliceLat": 25.2821,
            "PoliceLon": 82.999,
            "parking": "Besament Car Parking",
            "parkingLocationLink": "https://maps.app.goo.gl/C5vLDpvBWMeduHvK9",
            "parkingLat": 25.3093,
            "parkingLon": 83.0066,
            "publicWashrooms": "Sulabh Public Toilet",
            "publicWashroomsLocationLink": "https://maps.app.goo.gl/znmJtRhk22MaM1A28",
            "publicWashroomsLat": 25.321,
            "publicWashroomsLon": 83.0104
        },
        {
            "_id": "68c7f27e20f4dc4834768bd8",
            "cityId": "68c7454b4ea2df675385f352",
            "cityName": "Varanasi",
            "localMap": null,
            "emergencyContacts": "Fire No. 101",
            "hospital": "Infinity Care Hospital",
            "hospitalLocationLink": "https://maps.app.goo.gl/LaUxNNjdqtkEkN669",
            "hospitalLat": 25.321,
            "hospitalLon": 83.01,
            "PoliceLocationLink": "https://maps.app.goo.gl/t3EjwQw9QnFPPi46A",
            "PoliceLat": 25.3084,
            "PoliceLon": 82.9989,
            "parking": "Parking Stand",
            "parkingLocationLink": "https://maps.app.goo.gl/BcQV7iqLnN3785FP7",
            "parkingLat": 25.288,
            "parkingLon": 83.0051,
            "publicWashrooms": "Public Toilet Kamachha Main",
            "publicWashroomsLocationLink": "https://maps.app.goo.gl/sySDcn7mj5f1gN576",
            "publicWashroomsLat": 25.301,
            "publicWashroomsLon": 82.9978
        },
        {
            "_id": "68c7f27e20f4dc4834768bdc",
            "cityId": "68c7454b4ea2df675385f352",
            "cityName": "Varanasi",
            "localMap": null,
            "emergencyContacts": null,
            "hospital": null,
            "hospitalLocationLink": null,
            "hospitalLat": null,
            "hospitalLon": null,
            "PoliceLocationLink": "https://maps.app.goo.gl/rHkDQ7gRmVHGSNF16",
            "PoliceLat": 25.31,
            "PoliceLon": 82.996,
            "parking": null,
            "parkingLocationLink": null,
            "parkingLat": null,
            "parkingLon": null,
            "publicWashrooms": null,
            "publicWashroomsLocationLink": null,
            "publicWashroomsLat": null,
            "publicWashroomsLon": null
        },
        {
            "_id": "68c7f27e20f4dc4834768bd9",
            "cityId": "68c7454b4ea2df675385f352",
            "cityName": "Varanasi",
            "localMap": null,
            "emergencyContacts": "Helpline No. 18001805145",
            "hospital": "Agrim Hospital",
            "hospitalLocationLink": "https://maps.app.goo.gl/ucT1p1nqUnPN9ob28",
            "hospitalLat": 25.273,
            "hospitalLon": 82.988,
            "PoliceLocationLink": "https://maps.app.goo.gl/fYwkwdkg67hWmc9Z8",
            "PoliceLat": 25.325,
            "PoliceLon": 83.005,
            "parking": "Mazda Car Parking & Travel Point",
            "parkingLocationLink": "https://maps.app.goo.gl/Tcfjk6uNhxzPGokj9",
            "parkingLat": 25.3096,
            "parkingLon": 83.004,
            "publicWashrooms": null,
            "publicWashroomsLocationLink": null,
            "publicWashroomsLat": null,
            "publicWashroomsLon": null
        },
        {
            "_id": "68c7f27e20f4dc4834768bda",
            "cityId": "68c7454b4ea2df675385f352",
            "cityName": "Varanasi",
            "localMap": null,
            "emergencyContacts": null,
            "hospital": "Arvachin Hospital",
            "hospitalLocationLink": "https://maps.app.goo.gl/HWrbTk4Zip9KH8cz9",
            "hospitalLat": 25.282,
            "hospitalLon": 82.999,
            "PoliceLocationLink": "https://maps.app.goo.gl/tXLrFyieSrnz3SLA6",
            "PoliceLat": 25.3255,
            "PoliceLon": 83.0055,
            "parking": "P2 Basement Nagar Nigama Parking",
            "parkingLocationLink": "https://maps.app.goo.gl/X1NjRVx7pdib1SgA8",
            "parkingLat": 25.3148,
            "parkingLon": 83.0047,
            "publicWashrooms": null,
            "publicWashroomsLocationLink": null,
            "publicWashroomsLat": null,
            "publicWashroomsLon": null
        },
        {
            "_id": "68c7f27e20f4dc4834768bdb",
            "cityId": "68c7454b4ea2df675385f352",
            "cityName": "Varanasi",
            "localMap": null,
            "emergencyContacts": null,
            "hospital": null,
            "hospitalLocationLink": null,
            "hospitalLat": null,
            "hospitalLon": null,
            "PoliceLocationLink": "https://maps.app.goo.gl/hStCc2FQytpkwWPF9",
            "PoliceLat": 25.3215,
            "PoliceLon": 82.989,
            "parking": null,
            "parkingLocationLink": null,
            "parkingLat": null,
            "parkingLon": null,
            "publicWashrooms": null,
            "publicWashroomsLocationLink": null,
            "publicWashroomsLat": null,
            "publicWashroomsLon": null
        }
    ]
}