{
  "misc": [
    {
      "_id": "68e02d6dbd1f9c367048ddc2",
      "cityId": "68e02d40bd1f9c367048dd42",
      "cityName": "Ayodhya",
      "localMap": null,
      "emergencyContacts": null,
      "hospital": "Sri Ram Hospital",
      "hospitalLocationLink": "https://maps.app.goo.gl/X7x1xg27RfcQYeVL8",
      "hospitalLat": 26.7927,
      "hospitalLon": 82.1992,
      "PoliceLocationLink": "https://maps.app.goo.gl/tbDekJ6wQ1wibkZY6",
      "PoliceLat": 26.8085,
      "PoliceLon": 82.2085,
      "parking": "Parking",
      "parkingLocationLink": "https://maps.app.goo.gl/srr8djuRhoinXMtR8",
      "parkingLat": 26.798,
      "parkingLon": 82.2042,
      "publicWashrooms": "SBM Toilet",
      "publicWashroomsLocationLink": "https://maps.app.goo.gl/4acur2DZb7dL84CM7",
      "publicWashroomsLat": 26.7943,
      "publicWashroomsLon": 82.212,
      "premium": "FREE"
    },
    {
      "_id": "68e02d6dbd1f9c367048ddc4",
      "cityId": "68e02d40bd1f9c367048dd42",
      "cityName": "Ayodhya",
      "localMap": null,
      "emergencyContacts": null,
      "hospital": "SHIWAY HOSPITAL",
      "hospitalLocationLink": "https://maps.app.goo.gl/TmhPU2NgRPSa39ep7",
      "hospitalLat": 26.7768,
      "hospitalLon": 82.1782,
      "PoliceLocationLink": "https://maps.app.goo.gl/zqhTi1No4mWTb4rB7",
      "PoliceLat": 26.7886,
      "PoliceLon": 82.1919,
      "parking": "Multilevel Vehicle Parking",
      "parkingLocationLink": "https://maps.app.goo.gl/34ddNspQkXDSN3TT6",
      "parkingLat": 26.7986,
      "parkingLon": 82.222,
      "publicWashrooms": "SBM Toilet",
      "publicWashroomsLocationLink": "https://maps.app.goo.gl/r55Tb2iUERf9rWuQ6",
      "publicWashroomsLat": 26.7972,
      "publicWashroomsLon": 82.2021,
      "premium": "FREE"
    },
    {
      "_id": "68e02d6dbd1f9c367048ddc1",
      "cityId": "68e02d40bd1f9c367048dd42",
      "cityName": "Ayodhya",
      "localMap": null,
      "emergencyContacts": "Fire No. 101",
      "hospital": "District Hospital Ayodhya",
      "hospitalLocationLink": "https://maps.app.goo.gl/nezBRZdW1URHLXhN8",
      "hospitalLat": 26.7785,
      "hospitalLon": 82.1407,
      "PoliceLocationLink": "https://maps.app.goo.gl/TuBPLaBJd9Gft2qY6",
      "PoliceLat": 26.7709,
      "PoliceLon": 82.1808,
      "parking": "hanuman Gadhi parking area",
      "parkingLocationLink": "https://maps.app.goo.gl/bs4BGFijPQQMiA7C7",
      "parkingLat": 26.795,
      "parkingLon": 82.2011,
      "publicWashrooms": "SBM Toilet",
      "publicWashroomsLocationLink": "https://maps.app.goo.gl/DhhALSN453mNnjHq6",
      "publicWashroomsLat": 26.8074,
      "publicWashroomsLon": 82.2086,
      "premium": "FREE"
    },
    {
      "_id": "68e02d6dbd1f9c367048ddc3",
      "cityId": "68e02d40bd1f9c367048dd42",
      "cityName": "Ayodhya",
      "localMap": null,
      "emergencyContacts": null,
      "hospital": "Meddisity Superspeciality Hospital in Ayodhya",
      "hospitalLocationLink": "https://maps.app.goo.gl/siPzSSGvQMi9YRii8",
      "hospitalLat": 26.7641,
      "hospitalLon": 82.1851,
      "PoliceLocationLink": "https://maps.app.goo.gl/vFXVCKBEosCm7jiQ9",
      "PoliceLat": 26.8076,
      "PoliceLon": 82.2021,
      "parking": "Ram Mandir Parking Area",
      "parkingLocationLink": "https://maps.app.goo.gl/grGtsS1oBdVDSCBy6",
      "parkingLat": 26.8002,
      "parkingLon": 82.1983,
      "publicWashrooms": "SBM Toilet",
      "publicWashroomsLocationLink": "https://maps.app.goo.gl/sBH4XbC5Ke2VsBCT8",
      "publicWashroomsLat": 26.7991,
      "publicWashroomsLon": 82.2046,
      "premium": "FREE"
    },
    {
      "_id": "68e02d6dbd1f9c367048ddc0",
      "cityId": "68e02d40bd1f9c367048dd42",
      "cityName": "Ayodhya",
      "localMap": "https://res.cloudinary.com/dmpo42qxm/image/upload/v1759517295/v5vmisgppn2n7d1giy7k.jpg",
      "emergencyContacts": "Ambulance No. 108",
      "hospital": "Jhunjhunwala Super-Speciality Hospital Ayodhya",
      "hospitalLocationLink": "https://maps.app.goo.gl/vYAnbeU4QNRimhzK7",
      "hospitalLat": 26.7419,
      "hospitalLon": 82.1306,
      "PoliceLocationLink": "https://maps.app.goo.gl/ZqnhQckqQcBQSFYY9",
      "PoliceLat": 26.7866,
      "PoliceLon": 82.1342,
      "parking": "Ayodhya Parking",
      "parkingLocationLink": "https://maps.app.goo.gl/8uqvRb4GrKTo77an7",
      "parkingLat": 26.7912,
      "parkingLon": 82.1986,
      "publicWashrooms": "SBM Toilet",
      "publicWashroomsLocationLink": "https://maps.app.goo.gl/3amThKAaaEUrn8247",
      "publicWashroomsLat": 26.8053,
      "publicWashroomsLon": 82.2046,
      "premium": "FREE"
    },
    {
      "_id": "68e02d6dbd1f9c367048ddc6",
      "cityId": "68e02d40bd1f9c367048dd42",
      "cityName": "Ayodhya",
      "localMap": null,
      "emergencyContacts": null,
      "hospital": null,
      "hospitalLocationLink": null,
      "hospitalLat": null,
      "hospitalLon": null,
      "PoliceLocationLink": null,
      "PoliceLat": null,
      "PoliceLon": null,
      "parking": null,
      "parkingLocationLink": null,
      "parkingLat": null,
      "parkingLon": null,
      "publicWashrooms": "SBM Toilet",
      "publicWashroomsLocationLink": "https://maps.app.goo.gl/paTkL2JjZ3AnL5sg6",
      "publicWashroomsLat": 26.7824,
      "publicWashroomsLon": 82.204,
      "premium": "FREE"
    },
    {
      "_id": "68e02d6dbd1f9c367048ddc7",
      "cityId": "68e02d40bd1f9c367048dd42",
      "cityName": "Ayodhya",
      "localMap": null,
      "emergencyContacts": null,
      "hospital": null,
      "hospitalLocationLink": null,
      "hospitalLat": null,
      "hospitalLon": null,
      "PoliceLocationLink": null,
      "PoliceLat": null,
      "PoliceLon": null,
      "parking": null,
      "parkingLocationLink": null,
      "parkingLat": null,
      "parkingLon": null,
      "publicWashrooms": "SBM Toilet",
      "publicWashroomsLocationLink": "https://maps.app.goo.gl/jVAvhABgvT26WDKE8",
      "publicWashroomsLat": 26.7881,
      "publicWashroomsLon": 82.1931,
      "premium": "FREE"
    },
    {
      "_id": "68e02d6dbd1f9c367048ddbf",
      "cityId": "68e02d40bd1f9c367048dd42",
      "cityName": "Ayodhya",
      "localMap": "https://res.cloudinary.com/dmpo42qxm/image/upload/v1759517288/rbebwl1zcnbjzbluoefl.jpg",
      "emergencyContacts": "Police No. 112",
      "hospital": "Lucknow hospital Ayodhya",
      "hospitalLocationLink": "https://maps.app.goo.gl/UoGLCtjjWVPUe7199",
      "hospitalLat": 26.7472,
      "hospitalLon": 82.2103,
      "PoliceLocationLink": "https://maps.app.goo.gl/4HU2KxhejAoafvav6",
      "PoliceLat": 26.7561,
      "PoliceLon": 82.1417,
      "parking": "Gokul Bhavan (crossing 4) Parking Area",
      "parkingLocationLink": "https://maps.app.goo.gl/TDqRMoPBx8egKxoR6",
      "parkingLat": 26.7931,
      "parkingLon": 82.192,
      "publicWashrooms": "SBM Toilet",
      "publicWashroomsLocationLink": "https://maps.app.goo.gl/qizgUmVZvFJYmYpH6",
      "publicWashroomsLat": 26.8084,
      "publicWashroomsLon": 82.2001,
      "premium": "FREE"
    },
    {
      "_id": "68e02d6dbd1f9c367048ddc5",
      "cityId": "68e02d40bd1f9c367048dd42",
      "cityName": "Ayodhya",
      "localMap": null,
      "emergencyContacts": null,
      "hospital": null,
      "hospitalLocationLink": null,
      "hospitalLat": null,
      "hospitalLon": null,
      "PoliceLocationLink": "https://maps.app.goo.gl/6QhKi3uzXCfQbhMYA",
      "PoliceLat": 26.7907,
      "PoliceLon": 82.1808,
      "parking": null,
      "parkingLocationLink": null,
      "parkingLat": null,
      "parkingLon": null,
      "publicWashrooms": "SBM Toilet",
      "publicWashroomsLocationLink": "https://maps.app.goo.gl/NWPPvvxzjChbzizW8",
      "publicWashroomsLat": 26.7956,
      "publicWashroomsLon": 82.1981,
      "premium": "FREE"
    }
  ]
}