{
  "misc": [
    {
      "_id": "68c875339dad7b39dff585c6",
      "cityId": "68c7454b4ea2df675385f355",
      "cityName": "Kolkata",
      "localMap": null,
      "emergencyContacts": null,
      "hospital": "Bidhan Nagar Sub Divisional Hospital",
      "hospitalLocationLink": "https://maps.app.goo.gl/EMRcD5juCrXCVPBR7",
      "hospitalLat": 22.5911,
      "hospitalLon": 88.4111,
      "PoliceLocationLink": "https://maps.app.goo.gl/iqX1pwsRrPCKpWj29",
      "PoliceLat": 22.5726,
      "PoliceLon": 88.3523,
      "parking": "Alipore Multilayer Car Parking with Food Court",
      "parkingLocationLink": "https://maps.app.goo.gl/h4WXJaRQuTfhx7VWA",
      "parkingLat": 22.5329,
      "parkingLon": 88.3354,
      "publicWashrooms": "Public Toilet",
      "publicWashroomsLocationLink": "https://maps.app.goo.gl/y7kEXVLkKVmg86DeA",
      "publicWashroomsLat": 22.5446,
      "publicWashroomsLon": 88.3701
    },
    {
      "_id": "68c875339dad7b39dff585c7",
      "cityId": "68c7454b4ea2df675385f355",
      "cityName": "Kolkata",
      "localMap": null,
      "emergencyContacts": null,
      "hospital": "Apollo Multispeciality Hospitals, Kolkata",
      "hospitalLocationLink": "https://maps.app.goo.gl/3nJGHMms4mYkr4vS6",
      "hospitalLat": 22.5733,
      "hospitalLon": 88.4011,
      "PoliceLocationLink": "https://maps.app.goo.gl/RWt9h86hSJb5aphd7",
      "PoliceLat": 22.5925,
      "PoliceLon": 88.3709,
      "parking": "Pataka House Public Parking",
      "parkingLocationLink": "https://maps.app.goo.gl/2kXkTqnqoXDqjgbeA",
      "parkingLat": 22.5535,
      "parkingLon": 88.3535,
      "publicWashrooms": "Public Toilet",
      "publicWashroomsLocationLink": "https://maps.app.goo.gl/DnmuRaKWnqyNvnQXA",
      "publicWashroomsLat": 22.5642,
      "publicWashroomsLon": 88.3479
    },
    {
      "_id": "68c875339dad7b39dff585c5",
      "cityId": "68c7454b4ea2df675385f355",
      "cityName": "Kolkata",
      "localMap": null,
      "emergencyContacts": null,
      "hospital": "Goodace Hospital",
      "hospitalLocationLink": "https://maps.app.goo.gl/Wymu8wEd6Ns86yJJ8",
      "hospitalLat": 22.6023,
      "hospitalLon": 88.4231,
      "PoliceLocationLink": "https://maps.app.goo.gl/dkGn4bcQYjXzd51Y8",
      "PoliceLat": 22.5627,
      "PoliceLon": 88.3538,
      "parking": "RGKar Car parking area",
      "parkingLocationLink": "https://maps.app.goo.gl/Fw3s5cy9QXEVXxxw7",
      "parkingLat": 22.6046,
      "parkingLon": 88.3787,
      "publicWashrooms": "Pay And Use Toilet",
      "publicWashroomsLocationLink": "https://maps.app.goo.gl/ayUR8fDfMyikN1Rs9",
      "publicWashroomsLat": 22.5146,
      "publicWashroomsLon": 88.3652
    },
    {
      "_id": "68c875339dad7b39dff585c9",
      "cityId": "68c7454b4ea2df675385f355",
      "cityName": "Kolkata",
      "localMap": null,
      "emergencyContacts": null,
      "hospital": "M R Bangur Hospital",
      "hospitalLocationLink": "https://maps.app.goo.gl/TYVdyDQEyVA7rwGR6",
      "hospitalLat": 22.4994,
      "hospitalLon": 88.3464,
      "PoliceLocationLink": null,
      "PoliceLat": null,
      "PoliceLon": null,
      "parking": "Chandni chowk parking",
      "parkingLocationLink": "https://maps.app.goo.gl/1EEW1FxUxi69QmZ2A",
      "parkingLat": 22.5662,
      "parkingLon": 88.3541,
      "publicWashrooms": null,
      "publicWashroomsLocationLink": null,
      "publicWashroomsLat": null,
      "publicWashroomsLon": null
    },
    {
      "_id": "68c875339dad7b39dff585c1",
      "cityId": "68c7454b4ea2df675385f355",
      "cityName": "Kolkata",
      "localMap": "https://res.cloudinary.com/dmpo42qxm/image/upload/v1757960993/c2dqhvohlath4v12tmxf.jpg",
      "emergencyContacts": "Police No. 112",
      "hospital": "Jagannath Gupta Institute of Medical Sciences And Hospital",
      "hospitalLocationLink": "https://maps.app.goo.gl/F2bDxVBp53ukR1pXA",
      "hospitalLat": 22.4534,
      "hospitalLon": 88.1714,
      "PoliceLocationLink": "https://maps.app.goo.gl/KB9ckdENjQ7JJrRb8",
      "PoliceLat": 22.5088,
      "PoliceLon": 88.3069,
      "parking": "Rajib Bhadra Car Parking",
      "parkingLocationLink": "https://maps.app.goo.gl/fAnKaymqLgWirzu28",
      "parkingLat": 22.4909,
      "parkingLon": 88.3857,
      "publicWashrooms": "Public Toilet",
      "publicWashroomsLocationLink": "https://maps.app.goo.gl/XG3syLJoDDQUXh487",
      "publicWashroomsLat": 22.5798,
      "publicWashroomsLon": 88.4289
    },
    {
      "_id": "68c875339dad7b39dff585c3",
      "cityId": "68c7454b4ea2df675385f355",
      "cityName": "Kolkata",
      "localMap": null,
      "emergencyContacts": "Fire No. 101",
      "hospital": "Eskag Sanjeevani Multispecialty Hospital - Khardaha",
      "hospitalLocationLink": "https://maps.app.goo.gl/AWZxqxm18jaA2pDd9",
      "hospitalLat": 22.7239,
      "hospitalLon": 88.3819,
      "PoliceLocationLink": "https://maps.app.goo.gl/rnPHyW5dZb51BSnL9",
      "PoliceLat": 22.5159,
      "PoliceLon": 88.3659,
      "parking": "Nalban Car Parking",
      "parkingLocationLink": "https://maps.app.goo.gl/evZMhYN43r5xgz249",
      "parkingLat": 22.5676,
      "parkingLon": 88.4329,
      "publicWashrooms": "PAY & USE TOILET",
      "publicWashroomsLocationLink": "https://maps.app.goo.gl/xHUVL2626GqBxa1M7",
      "publicWashroomsLat": 22.5963,
      "publicWashroomsLon": 88.3637
    },
    {
      "_id": "68c875339dad7b39dff585c4",
      "cityId": "68c7454b4ea2df675385f355",
      "cityName": "Kolkata",
      "localMap": null,
      "emergencyContacts": null,
      "hospital": "ESI Hospital Kamarhati",
      "hospitalLocationLink": "https://maps.app.goo.gl/Br2T7A6JcXVHvWzH7",
      "hospitalLat": 22.6766,
      "hospitalLon": 88.3735,
      "PoliceLocationLink": "https://maps.app.goo.gl/Hetcr4Bgzn5TrSgA9",
      "PoliceLat": 22.5496,
      "PoliceLon": 88.3563,
      "parking": "Kolkta bookfair parking 01",
      "parkingLocationLink": "https://maps.app.goo.gl/fMSGmemHmPuavXuZ6",
      "parkingLat": 22.5877,
      "parkingLon": 88.4209,
      "publicWashrooms": "Pay And Use Toilets - Tollygunge",
      "publicWashroomsLocationLink": "https://maps.app.goo.gl/gEmQzCFKj5GinAax6",
      "publicWashroomsLat": 22.4933,
      "publicWashroomsLon": 88.3451
    },
    {
      "_id": "68c875339dad7b39dff585c2",
      "cityId": "68c7454b4ea2df675385f355",
      "cityName": "Kolkata",
      "localMap": "https://res.cloudinary.com/dmpo42qxm/image/upload/v1757960998/ynikyra9mfimsalsfmk1.jpg",
      "emergencyContacts": "Ambulance No. 108",
      "hospital": "Narayana Hospital Barasat",
      "hospitalLocationLink": "https://maps.app.goo.gl/Sf54WdYVea6Yd9za9",
      "hospitalLat": 22.7052,
      "hospitalLon": 88.4721,
      "PoliceLocationLink": "https://maps.app.goo.gl/wAWdXuX7NGbMuRXT6",
      "PoliceLat": 22.4804,
      "PoliceLon": 88.3601,
      "parking": "Science City Parking Area",
      "parkingLocationLink": "https://maps.app.goo.gl/QCbYE4KFHVTq8c476",
      "parkingLat": 22.5421,
      "parkingLon": 88.3951,
      "publicWashrooms": "Public Toilet",
      "publicWashroomsLocationLink": "https://maps.app.goo.gl/zzY8RpVSvURFDUhz9",
      "publicWashroomsLat": 22.5895,
      "publicWashroomsLon": 88.4011
    },
    {
      "_id": "68c875339dad7b39dff585c8",
      "cityId": "68c7454b4ea2df675385f355",
      "cityName": "Kolkata",
      "localMap": null,
      "emergencyContacts": null,
      "hospital": "Narayan Memorial Hospital",
      "hospitalLocationLink": "https://maps.app.goo.gl/6QV7fZcKhhwFiezC9",
      "hospitalLat": 22.4957,
      "hospitalLon": 88.3171,
      "PoliceLocationLink": "https://maps.app.goo.gl/QFwrp5dctAU3YmDe8",
      "PoliceLat": 22.5809,
      "PoliceLon": 88.3599,
      "parking": "GPO PARKING",
      "parkingLocationLink": "https://maps.app.goo.gl/nBAMpz9pCzeqFSwdA",
      "parkingLat": 22.5727,
      "parkingLon": 88.3472,
      "publicWashrooms": null,
      "publicWashroomsLocationLink": null,
      "publicWashroomsLat": null,
      "publicWashroomsLon": null
    }
  ]
}